[{"FacultyLocation":"University of Texas at Austin","Name":"Michael Drew","PhDLocation":"Columbia University","City":"New York, New York","Rank":8,"Foregin":false,"YearGrad":0,"Lat":40.7127281,"Long":-74.0060152},{"FacultyLocation":"University of Texas at Austin","Name":"Chandrajit L Bajaj","PhDLocation":"Cornell University","City":"Ithaca, New York","Rank":55,"Foregin":false,"YearGrad":0,"Lat":42.4374175,"Long":-76.5483723514},{"FacultyLocation":"University of Texas at Austin","Name":"Harold H Zakon","PhDLocation":"Cornell University","City":"Ithaca, New York","Rank":55,"Foregin":false,"YearGrad":1981,"Lat":42.4374175,"Long":-76.5483723514},{"FacultyLocation":"University of Texas at Austin","Name":"Joseph E Dunsmoor Jr","PhDLocation":"Duke University","City":"Durham, North Carolina","Rank":31,"Foregin":false,"YearGrad":0,"Lat":35.996653,"Long":-78.9018053},{"FacultyLocation":"University of Texas at Austin","Name":"Susanne Ressl","PhDLocation":"Goethe University","City":"Frankfurt, Germany","Rank":152,"Foregin":"F","YearGrad":0,"Lat":50.1106444,"Long":8.6820917},{"FacultyLocation":"University of Texas at Austin","Name":"John S Kuo","PhDLocation":"Harvard Medical School","City":"Boston, Massachusetts","Rank":1,"Foregin":false,"YearGrad":0,"Lat":42.3554334,"Long":-71.060511},{"FacultyLocation":"University of Texas at Austin","Name":"Wilson S Geisler III","PhDLocation":"Indiana University","City":"Bloomington, Indiana","Rank":76,"Foregin":false,"YearGrad":0,"Lat":39.1670396,"Long":-86.5342881},{"FacultyLocation":"University of Texas at Austin","Name":"Robbe L Goris","PhDLocation":"KU Leuven","City":"Leuven, Belgium","Rank":54,"Foregin":"F","YearGrad":0,"Lat":50.879202,"Long":4.7011675},{"FacultyLocation":"University of Texas at Austin","Name":"Hitoshi Morikawa","PhDLocation":"Kyoto University","City":"Kyoto, Japan","Rank":102,"Foregin":"F","YearGrad":1999,"Lat":35.021041,"Long":135.7556075},{"FacultyLocation":"University of Texas at Austin","Name":"Hiroshi Nishiyama","PhDLocation":"Kyoto University","City":"Kyoto, Japan","Rank":102,"Foregin":"F","YearGrad":2002,"Lat":35.021041,"Long":135.7556075},{"FacultyLocation":"University of Texas at Austin","Name":"Frances A Champagne","PhDLocation":"McGill University","City":"Quebec, Canada","Rank":14,"Foregin":"F","YearGrad":0,"Lat":52.4760892,"Long":-71.8258668},{"FacultyLocation":"University of Texas at Austin","Name":"Andres Jara-Oseguera","PhDLocation":"National Autonomous University of Mexico","City":"Mexico City, Mexico","Rank":0,"Foregin":"F","YearGrad":0,"Lat":19.4326296,"Long":-99.1331785},{"FacultyLocation":"University of Texas at Austin","Name":"Somshuvra Mukhopadhyay","PhDLocation":"New York Medical College","City":"Valhalla, New York","Rank":0,"Foregin":false,"YearGrad":2004,"Lat":41.0748189,"Long":-73.7751326},{"FacultyLocation":"University of Texas at Austin","Name":"Franco Pestilli","PhDLocation":"New York University","City":"New York, New York","Rank":16,"Foregin":false,"YearGrad":0,"Lat":40.7127281,"Long":-74.0060152},{"FacultyLocation":"University of Texas at Austin","Name":"Kristen M Harris","PhDLocation":"Northeastern Ohio University","City":"Rootstown, Ohio","Rank":0,"Foregin":false,"YearGrad":0,"Lat":41.0990792,"Long":-81.2424901},{"FacultyLocation":"University of Texas at Austin","Name":"Laura K Fonken","PhDLocation":"Ohio State University","City":"Columbus, Ohio","Rank":112,"Foregin":false,"YearGrad":0,"Lat":39.9622601,"Long":-83.0007065},{"FacultyLocation":"University of Texas at Austin","Name":"Lauren Dobbs","PhDLocation":"Oregon Health and Science University","City":"Portland, Oregon","Rank":95,"Foregin":false,"YearGrad":0,"Lat":45.5202471,"Long":-122.674194},{"FacultyLocation":"University of Texas at Austin","Name":"Nigel S Atkinson","PhDLocation":"Penn State University","City":"State College, Pennsylvania","Rank":271,"Foregin":false,"YearGrad":0,"Lat":40.7944504,"Long":-77.8616386},{"FacultyLocation":"University of Texas at Austin","Name":"Xuexin Wei","PhDLocation":"Penn State University","City":"State College, Pennsylvania","Rank":271,"Foregin":false,"YearGrad":0,"Lat":40.7944504,"Long":-77.8616386},{"FacultyLocation":"University of Texas at Austin","Name":"Samantha R Santacruz","PhDLocation":"Rice University","City":"Houston, Texas","Rank":0,"Foregin":false,"YearGrad":2014,"Lat":29.7589382,"Long":-95.3676974},{"FacultyLocation":"University of Texas at Austin","Name":"Max Snodderly","PhDLocation":"Rockefeller University","City":"New York, New York","Rank":111,"Foregin":false,"YearGrad":1969,"Lat":40.7127281,"Long":-74.0060152},{"FacultyLocation":"University of Texas at Austin","Name":"Thibaud O Taillefumier","PhDLocation":"Rockefeller University","City":"New York, New York","Rank":111,"Foregin":false,"YearGrad":0,"Lat":40.7127281,"Long":-74.0060152},{"FacultyLocation":"University of Texas at Austin","Name":"Richard Aldrich","PhDLocation":"Stanford University","City":"Stanford, California","Rank":4,"Foregin":false,"YearGrad":0,"Lat":37.4265407,"Long":-122.1703054553},{"FacultyLocation":"University of Texas at Austin","Name":"Adela Ben-Yakar","PhDLocation":"Stanford University","City":"Stanford, California","Rank":4,"Foregin":false,"YearGrad":0,"Lat":37.4265407,"Long":-122.1703054553},{"FacultyLocation":"University of Texas at Austin","Name":"George D Bittner","PhDLocation":"Stanford University","City":"Stanford, California","Rank":4,"Foregin":false,"YearGrad":0,"Lat":37.4265407,"Long":-122.1703054553},{"FacultyLocation":"University of Texas at Austin","Name":"Lief Fenno","PhDLocation":"Stanford University","City":"Stanford, California","Rank":4,"Foregin":false,"YearGrad":0,"Lat":37.4265407,"Long":-122.1703054553},{"FacultyLocation":"University of Texas at Austin","Name":"Michael Mauk","PhDLocation":"Stanford University","City":"Stanford, California","Rank":4,"Foregin":false,"YearGrad":0,"Lat":37.4265407,"Long":-122.1703054553},{"FacultyLocation":"University of Texas at Austin","Name":"Eyal Seidemann","PhDLocation":"Stanford University","City":"Stanford, California","Rank":4,"Foregin":false,"YearGrad":1998,"Lat":37.4265407,"Long":-122.1703054553},{"FacultyLocation":"University of Texas at Austin","Name":"Huiliang Wang","PhDLocation":"Stanford University","City":"Stanford, California","Rank":4,"Foregin":false,"YearGrad":0,"Lat":37.4265407,"Long":-122.1703054553},{"FacultyLocation":"University of Texas at Austin","Name":"Boris Zemelman","PhDLocation":"Stanford University","City":"Stanford, California","Rank":4,"Foregin":false,"YearGrad":0,"Lat":37.4265407,"Long":-122.1703054553},{"FacultyLocation":"University of Texas at Austin","Name":"Alison R Preston","PhDLocation":"Stanford University ","City":"Stanford, California","Rank":4,"Foregin":false,"YearGrad":2004,"Lat":37.4265407,"Long":-122.1703054553},{"FacultyLocation":"University of Texas at Austin","Name":"Seema Agarwala","PhDLocation":"State University of New York at Stony Brook","City":"Stony Brook, New York","Rank":306,"Foregin":false,"YearGrad":0,"Lat":40.9256538,"Long":-73.140943},{"FacultyLocation":"University of Texas at Austin","Name":"Husniye Kantarci","PhDLocation":"Texas A&M University","City":"College Station, Texas","Rank":349,"Foregin":false,"YearGrad":0,"Lat":30.6183939,"Long":-96.3455991},{"FacultyLocation":"University of Texas at Austin","Name":"Andrew D Gaudet","PhDLocation":"The University of British Columbia","City":"Vancouver, Canada","Rank":0,"Foregin":"F","YearGrad":0,"Lat":49.2608724,"Long":-123.113952},{"FacultyLocation":"University of Texas at Austin","Name":"Jennifer Donegan","PhDLocation":"The University of Texas at San Antonio","City":"San Antonio, Texas","Rank":271,"Foregin":false,"YearGrad":0,"Lat":29.4246002,"Long":-98.4951405},{"FacultyLocation":"University of Texas at Austin","Name":"Juan M Dominguez","PhDLocation":"University at Buffalo","City":"Buffalo, New York","Rank":141,"Foregin":false,"YearGrad":0,"Lat":42.8867166,"Long":-78.8783922},{"FacultyLocation":"University of Texas at Austin","Name":"Mbemba Jabbi","PhDLocation":"University Medical Center Groningen","City":"Hanzeplein, Netherlands","Rank":107,"Foregin":"F","YearGrad":0,"Lat":52.50295755,"Long":6.0845073393},{"FacultyLocation":"University of Texas at Austin","Name":"Maya L Henry","PhDLocation":"University of Arizona","City":"Tucson, Arizona","Rank":246,"Foregin":false,"YearGrad":0,"Lat":32.2228765,"Long":-110.974847},{"FacultyLocation":"University of Texas at Austin","Name":"David M Schnyer","PhDLocation":"University of Arizona","City":"Tucson, Arizona","Rank":246,"Foregin":false,"YearGrad":1998,"Lat":32.2228765,"Long":-110.974847},{"FacultyLocation":"University of Texas at Austin","Name":"Josh M Cisler","PhDLocation":"University of Arkansas","City":"Fayetteville, Arkansas","Rank":0,"Foregin":false,"YearGrad":0,"Lat":36.0625843,"Long":-94.1574328},{"FacultyLocation":"University of Texas at Austin","Name":"Michela Marinelli","PhDLocation":"University of Bordeaux 2","City":"Nouvelle-Aquitaine, France","Rank":76,"Foregin":"F","YearGrad":0,"Lat":45.4039367,"Long":0.3756199},{"FacultyLocation":"University of Texas at Austin","Name":"Lawrence K Cormack","PhDLocation":"University of California at Berkeley","City":"Berkeley, California","Rank":18,"Foregin":false,"YearGrad":0,"Lat":37.8708393,"Long":-122.272863},{"FacultyLocation":"University of Texas at Austin","Name":"Liberty Hamilton","PhDLocation":"University of California at Berkeley","City":"Berkeley, California","Rank":18,"Foregin":false,"YearGrad":0,"Lat":37.8708393,"Long":-122.272863},{"FacultyLocation":"University of Texas at Austin","Name":"Alexander Huth","PhDLocation":"University of California at Berkeley","City":"Berkeley, California","Rank":18,"Foregin":false,"YearGrad":0,"Lat":37.8708393,"Long":-122.272863},{"FacultyLocation":"University of Texas at Austin","Name":"Audrey Duarte","PhDLocation":"University of California at Berkeley","City":"Berkeley, California","Rank":18,"Foregin":false,"YearGrad":0,"Lat":37.8708393,"Long":-122.272863},{"FacultyLocation":"University of Texas at Austin","Name":"Laura L Colgin","PhDLocation":"University of California at Irvine","City":"Irvine, California","Rank":46,"Foregin":false,"YearGrad":0,"Lat":33.6856969,"Long":-117.825981},{"FacultyLocation":"University of Texas at Austin","Name":"Yi Lu","PhDLocation":"University of California at Los Angeles","City":"Las Angeles, California","Rank":12,"Foregin":false,"YearGrad":0,"Lat":34.1445091,"Long":-118.775623},{"FacultyLocation":"University of Texas at Austin","Name":"Esther Melamed","PhDLocation":"University of California at Los Angeles","City":"Las Angeles, California","Rank":12,"Foregin":false,"YearGrad":0,"Lat":34.1445091,"Long":-118.775623},{"FacultyLocation":"University of Texas at Austin","Name":"Risto P Miikkulainen","PhDLocation":"University of California at Los Angeles","City":"Las Angeles, California","Rank":12,"Foregin":false,"YearGrad":1990,"Lat":34.1445091,"Long":-118.775623},{"FacultyLocation":"University of Texas at Austin","Name":"Linda J Noble","PhDLocation":"University of California at Los Angeles","City":"Las Angeles, California","Rank":12,"Foregin":false,"YearGrad":1982,"Lat":34.1445091,"Long":-118.775623},{"FacultyLocation":"University of Texas at Austin","Name":"Gregory A Fonzo","PhDLocation":"University of California at San Diego","City":"San Diego, California","Rank":11,"Foregin":false,"YearGrad":0,"Lat":32.7174202,"Long":-117.162772},{"FacultyLocation":"University of Texas at Austin","Name":"Mary M Hayhoe","PhDLocation":"University of California at San Diego","City":"San Diego, California","Rank":11,"Foregin":false,"YearGrad":0,"Lat":32.7174202,"Long":-117.162772},{"FacultyLocation":"University of Texas at Austin","Name":"Nicholas J Priebe","PhDLocation":"University of California at San Francisco","City":"San Francisco, California","Rank":2,"Foregin":false,"YearGrad":2001,"Lat":37.7792588,"Long":-122.4193286},{"FacultyLocation":"University of Texas at Austin","Name":"James P Curley","PhDLocation":"University of Cambridge","City":"Cambridge, United Kingdom","Rank":19,"Foregin":false,"YearGrad":0,"Lat":52.2055314,"Long":0.1186637},{"FacultyLocation":"University of Texas at Austin","Name":"Jose del R Millan","PhDLocation":"University of Catalonia","City":"Barcelona, Spain","Rank":0,"Foregin":"F","YearGrad":1992,"Lat":41.3828939,"Long":2.1774322},{"FacultyLocation":"University of Texas at Austin","Name":"Audrey C Brumback","PhDLocation":"University of Colorado","City":"Denver, Colorado","Rank":191,"Foregin":false,"YearGrad":0,"Lat":39.7392364,"Long":-104.984862},{"FacultyLocation":"University of Texas at Austin","Name":"Mike Freedberg","PhDLocation":"University of Iowa","City":"Iowa City, Iowa","Rank":99,"Foregin":false,"YearGrad":0,"Lat":41.6683126,"Long":-91.5795267409},{"FacultyLocation":"University of Texas at Austin","Name":"Sara J Hussain","PhDLocation":"University of Iowa","City":"Iowa City, Iowa","Rank":99,"Foregin":false,"YearGrad":0,"Lat":41.6683126,"Long":-91.5795267409},{"FacultyLocation":"University of Texas at Austin","Name":"Hans Hofmann","PhDLocation":"University of Leipzig","City":"Leipzig, Germany","Rank":210,"Foregin":"F","YearGrad":0,"Lat":51.3406321,"Long":12.3747329},{"FacultyLocation":"University of Texas at Austin","Name":"Marie H Monfils","PhDLocation":"University of Lethbridge","City":"Lethbridge, Canada","Rank":0,"Foregin":"F","YearGrad":0,"Lat":49.6945782,"Long":-112.8331033},{"FacultyLocation":"University of Texas at Austin","Name":"Yvon Delville","PhDLocation":"University of Massachusetts at Amherst","City":"Amherst, Massachusetts","Rank":0,"Foregin":false,"YearGrad":0,"Lat":42.3731948,"Long":-72.5198761},{"FacultyLocation":"University of Texas at Austin","Name":"Caitlin A Orsini","PhDLocation":"University of Michigan","City":"Ann Arbor, Michigan","Rank":38,"Foregin":false,"YearGrad":0,"Lat":42.2813722,"Long":-83.7484616},{"FacultyLocation":"University of Texas at Austin","Name":"Johann Eberhart","PhDLocation":"University of Missouri","City":"Columbia, Missouri","Rank":0,"Foregin":false,"YearGrad":0,"Lat":38.951883,"Long":-92.3337366},{"FacultyLocation":"University of Texas at Austin","Name":"Elizabeth T Lippard","PhDLocation":"University of North Carolina at Chapel Hill","City":"Chapel Hill, North Carolina","Rank":51,"Foregin":false,"YearGrad":0,"Lat":35.9131542,"Long":-79.05578},{"FacultyLocation":"University of Texas at Austin","Name":"Jonathan Pierce","PhDLocation":"University of Oregon","City":"Eugene, Oregon","Rank":95,"Foregin":false,"YearGrad":0,"Lat":44.0505054,"Long":-123.0950506},{"FacultyLocation":"University of Texas at Austin","Name":"Eric Senning","PhDLocation":"University of Oregon","City":"Eugene, Oregon","Rank":95,"Foregin":false,"YearGrad":0,"Lat":44.0505054,"Long":-123.0950506},{"FacultyLocation":"University of Texas at Austin","Name":"F Gonzalez-Lima","PhDLocation":"University of Puerto Rico School of Medicine","City":"San Juan, Puerto Rico","Rank":0,"Foregin":"F","YearGrad":0,"Lat":18.465299,"Long":-66.116666},{"FacultyLocation":"University of Texas at Austin","Name":"Chen Yu","PhDLocation":"University of Rochester","City":"Rochester, New York","Rank":91,"Foregin":false,"YearGrad":0,"Lat":43.157285,"Long":-77.615214},{"FacultyLocation":"University of Texas at Austin","Name":"Theresa A Jones","PhDLocation":"University of Texas at Austin","City":"Austin, Texas","Rank":127,"Foregin":false,"YearGrad":0,"Lat":30.2711286,"Long":-97.7436995},{"FacultyLocation":"University of Texas at Austin","Name":"Kimberly Nixon","PhDLocation":"University of Texas at Austin","City":"Austin, Texas","Rank":127,"Foregin":false,"YearGrad":0,"Lat":30.2711286,"Long":-97.7436995},{"FacultyLocation":"University of Texas at Austin","Name":"Steven M Phelps","PhDLocation":"University of Texas at Austin","City":"Austin, Texas","Rank":127,"Foregin":false,"YearGrad":1999,"Lat":30.2711286,"Long":-97.7436995},{"FacultyLocation":"University of Texas at Austin","Name":"Luis A Natividad","PhDLocation":"University of Texas at El Paso","City":"El Paso, Texas","Rank":0,"Foregin":false,"YearGrad":0,"Lat":31.7550511,"Long":-106.488234},{"FacultyLocation":"University of Texas at Austin","Name":"S J Mihic","PhDLocation":"University of Toronto","City":"Toronto, Canada","Rank":13,"Foregin":"F","YearGrad":0,"Lat":43.6534817,"Long":-79.3839347},{"FacultyLocation":"University of Texas at Austin","Name":"Andreana P Haley","PhDLocation":"University of Virginia","City":"Charlottesville, Virginia","Rank":110,"Foregin":false,"YearGrad":0,"Lat":38.029306,"Long":-78.4766781},{"FacultyLocation":"University of Texas at Austin","Name":"Amy Lee","PhDLocation":"University of Virginia","City":"Charlottesville, Virginia","Rank":110,"Foregin":false,"YearGrad":0,"Lat":38.029306,"Long":-78.4766781},{"FacultyLocation":"University of Texas at Austin","Name":"Mackenzie A Howard","PhDLocation":"University of Washington","City":"Seattle, Washington","Rank":19,"Foregin":false,"YearGrad":0,"Lat":47.6038321,"Long":-122.330062},{"FacultyLocation":"University of Texas at Austin","Name":"Nace L Golding","PhDLocation":"University of Wisconsin-Madison","City":"Madison, Wisconsin","Rank":57,"Foregin":false,"YearGrad":0,"Lat":43.074761,"Long":-89.3837613},{"FacultyLocation":"University of Texas at Austin","Name":"Goldschen-Ohm, Marcel","PhDLocation":"University of Wisconsin-Madison","City":"Madison, Wisconsin","Rank":57,"Foregin":false,"YearGrad":0,"Lat":43.074761,"Long":-89.3837613},{"FacultyLocation":"University of Texas at Austin","Name":"Lori L Holt","PhDLocation":"University of Wisconsin-Madison","City":"Madison, Wisconsin","Rank":57,"Foregin":false,"YearGrad":0,"Lat":43.074761,"Long":-89.3837613},{"FacultyLocation":"University of Texas at Austin","Name":"Jarrod A Lewis-Peacock","PhDLocation":"University of Wisconsin-Madison","City":"Madison, Wisconsin","Rank":57,"Foregin":false,"YearGrad":0,"Lat":43.074761,"Long":-89.3837613},{"FacultyLocation":"University of Texas at Austin","Name":"Jessica A Church-Lang","PhDLocation":"Washington University","City":"St. Louis, Missouri","Rank":9,"Foregin":false,"YearGrad":0,"Lat":38.6280278,"Long":-90.1910154},{"FacultyLocation":"University of Texas at Austin","Name":"Hongjoo J Lee","PhDLocation":"Yale University","City":"New Haven, Connecticut","Rank":10,"Foregin":false,"YearGrad":0,"Lat":41.3082138,"Long":-72.9250518}]